[
  {
    "name": "Balkh",
    "countryCode": "AF",
    "stateCode": "BAL",
    "latitude": "36.75635000",
    "longitude": "66.89720000"
  },
  {
    "name": "Dowlatābād",
    "countryCode": "AF",
    "stateCode": "BAL",
    "latitude": "36.98821000",
    "longitude": "66.82069000"
  },
  {
    "name": "Khulm",
    "countryCode": "AF",
    "stateCode": "BAL",
    "latitude": "36.69736000",
    "longitude": "67.69826000"
  },
  {
    "name": "Lab-Sar",
    "countryCode": "AF",
    "stateCode": "BAL",
    "latitude": "36.02634000",
    "longitude": "66.83799000"
  },
  {
    "name": "Mazār-e Sharīf",
    "countryCode": "AF",
    "stateCode": "BAL",
    "latitude": "36.70904000",
    "longitude": "67.11087000"
  },
  {
    "name": "Qarchī Gak",
    "countryCode": "AF",
    "stateCode": "BAL",
    "latitude": "37.03999000",
    "longitude": "66.78891000"
  },
  {
    "name": "Bāmyān",
    "countryCode": "AF",
    "stateCode": "BAM",
    "latitude": "34.82156000",
    "longitude": "67.82734000"
  },
  {
    "name": "Panjāb",
    "countryCode": "AF",
    "stateCode": "BAM",
    "latitude": "34.38795000",
    "longitude": "67.02327000"
  },
  {
    "name": "Ghormach",
    "countryCode": "AF",
    "stateCode": "BDG",
    "latitude": "35.73062000",
    "longitude": "63.78264000"
  },
  {
    "name": "Qala i Naw",
    "countryCode": "AF",
    "stateCode": "BDG",
    "latitude": "34.98735000",
    "longitude": "63.12891000"
  },
  {
    "name": "Ashkāsham",
    "countryCode": "AF",
    "stateCode": "BDS",
    "latitude": "36.68333000",
    "longitude": "71.53333000"
  },
  {
    "name": "Fayzabad",
    "countryCode": "AF",
    "stateCode": "BDS",
    "latitude": "37.11664000",
    "longitude": "70.58002000"
  },
  {
    "name": "Jurm",
    "countryCode": "AF",
    "stateCode": "BDS",
    "latitude": "36.86477000",
    "longitude": "70.83421000"
  },
  {
    "name": "Khandūd",
    "countryCode": "AF",
    "stateCode": "BDS",
    "latitude": "36.95127000",
    "longitude": "72.31800000"
  },
  {
    "name": "Rāghistān",
    "countryCode": "AF",
    "stateCode": "BDS",
    "latitude": "37.66079000",
    "longitude": "70.67346000"
  },
  {
    "name": "Wākhān",
    "countryCode": "AF",
    "stateCode": "BDS",
    "latitude": "37.05710000",
    "longitude": "73.34928000"
  },
  {
    "name": "Baghlān",
    "countryCode": "AF",
    "stateCode": "BGL",
    "latitude": "36.13068000",
    "longitude": "68.70829000"
  },
  {
    "name": "Nahrīn",
    "countryCode": "AF",
    "stateCode": "BGL",
    "latitude": "36.06490000",
    "longitude": "69.13343000"
  },
  {
    "name": "Pul-e Khumrī",
    "countryCode": "AF",
    "stateCode": "BGL",
    "latitude": "35.94458000",
    "longitude": "68.71512000"
  },
  {
    "name": "Ḩukūmatī Dahanah-ye Ghōrī",
    "countryCode": "AF",
    "stateCode": "BGL",
    "latitude": "35.90617000",
    "longitude": "68.48869000"
  },
  {
    "name": "Nīlī",
    "countryCode": "AF",
    "stateCode": "DAY",
    "latitude": "33.76329000",
    "longitude": "66.07617000"
  },
  {
    "name": "Farah",
    "countryCode": "AF",
    "stateCode": "FRA",
    "latitude": "32.37451000",
    "longitude": "62.11638000"
  },
  {
    "name": "Andkhoy",
    "countryCode": "AF",
    "stateCode": "FYB",
    "latitude": "36.95293000",
    "longitude": "65.12376000"
  },
  {
    "name": "Maymana",
    "countryCode": "AF",
    "stateCode": "FYB",
    "latitude": "35.92139000",
    "longitude": "64.78361000"
  },
  {
    "name": "Ghazni",
    "countryCode": "AF",
    "stateCode": "GHA",
    "latitude": "33.55391000",
    "longitude": "68.42096000"
  },
  {
    "name": "Fayrōz Kōh",
    "countryCode": "AF",
    "stateCode": "GHO",
    "latitude": "34.51952000",
    "longitude": "65.25093000"
  },
  {
    "name": "Shahrak",
    "countryCode": "AF",
    "stateCode": "GHO",
    "latitude": "34.10737000",
    "longitude": "64.30520000"
  },
  {
    "name": "Gereshk",
    "countryCode": "AF",
    "stateCode": "HEL",
    "latitude": "31.82089000",
    "longitude": "64.57005000"
  },
  {
    "name": "Lashkar Gāh",
    "countryCode": "AF",
    "stateCode": "HEL",
    "latitude": "31.59382000",
    "longitude": "64.37161000"
  },
  {
    "name": "Markaz-e Ḩukūmat-e Darwēshān",
    "countryCode": "AF",
    "stateCode": "HEL",
    "latitude": "31.13231000",
    "longitude": "64.19340000"
  },
  {
    "name": "Sangīn",
    "countryCode": "AF",
    "stateCode": "HEL",
    "latitude": "32.07275000",
    "longitude": "64.83590000"
  },
  {
    "name": "‘Alāqahdārī Dīshū",
    "countryCode": "AF",
    "stateCode": "HEL",
    "latitude": "30.43206000",
    "longitude": "63.29802000"
  },
  {
    "name": "Chahār Burj",
    "countryCode": "AF",
    "stateCode": "HER",
    "latitude": "34.24475000",
    "longitude": "62.19165000"
  },
  {
    "name": "Ghōriyān",
    "countryCode": "AF",
    "stateCode": "HER",
    "latitude": "34.34480000",
    "longitude": "61.49321000"
  },
  {
    "name": "Herāt",
    "countryCode": "AF",
    "stateCode": "HER",
    "latitude": "34.34817000",
    "longitude": "62.19967000"
  },
  {
    "name": "Kafir Qala",
    "countryCode": "AF",
    "stateCode": "HER",
    "latitude": "34.66667000",
    "longitude": "61.06667000"
  },
  {
    "name": "Karukh",
    "countryCode": "AF",
    "stateCode": "HER",
    "latitude": "34.48108000",
    "longitude": "62.58630000"
  },
  {
    "name": "Kuhsān",
    "countryCode": "AF",
    "stateCode": "HER",
    "latitude": "34.65389000",
    "longitude": "61.19778000"
  },
  {
    "name": "Kushk",
    "countryCode": "AF",
    "stateCode": "HER",
    "latitude": "33.29565000",
    "longitude": "61.95221000"
  },
  {
    "name": "Qarah Bāgh",
    "countryCode": "AF",
    "stateCode": "HER",
    "latitude": "34.94023000",
    "longitude": "61.77589000"
  },
  {
    "name": "Shīnḏanḏ",
    "countryCode": "AF",
    "stateCode": "HER",
    "latitude": "33.30294000",
    "longitude": "62.14740000"
  },
  {
    "name": "Tīr Pul",
    "countryCode": "AF",
    "stateCode": "HER",
    "latitude": "34.59431000",
    "longitude": "61.26895000"
  },
  {
    "name": "Zindah Jān",
    "countryCode": "AF",
    "stateCode": "HER",
    "latitude": "34.34264000",
    "longitude": "61.74675000"
  },
  {
    "name": "Darzāb",
    "countryCode": "AF",
    "stateCode": "JOW",
    "latitude": "35.97744000",
    "longitude": "65.37828000"
  },
  {
    "name": "Qarqīn",
    "countryCode": "AF",
    "stateCode": "JOW",
    "latitude": "37.41853000",
    "longitude": "66.04358000"
  },
  {
    "name": "Shibirghān",
    "countryCode": "AF",
    "stateCode": "JOW",
    "latitude": "36.66757000",
    "longitude": "65.75290000"
  },
  {
    "name": "Āqchah",
    "countryCode": "AF",
    "stateCode": "JOW",
    "latitude": "36.90500000",
    "longitude": "66.18341000"
  },
  {
    "name": "Kabul",
    "countryCode": "AF",
    "stateCode": "KAB",
    "latitude": "34.52813000",
    "longitude": "69.17233000"
  },
  {
    "name": "Mīr Bachah Kōṯ",
    "countryCode": "AF",
    "stateCode": "KAB",
    "latitude": "34.74999000",
    "longitude": "69.11899000"
  },
  {
    "name": "Paghmān",
    "countryCode": "AF",
    "stateCode": "KAB",
    "latitude": "34.58787000",
    "longitude": "68.95091000"
  },
  {
    "name": "Kandahār",
    "countryCode": "AF",
    "stateCode": "KAN",
    "latitude": "31.61332000",
    "longitude": "65.71013000"
  },
  {
    "name": "Sidqābād",
    "countryCode": "AF",
    "stateCode": "KAP",
    "latitude": "35.02298000",
    "longitude": "69.35112000"
  },
  {
    "name": "Dasht-e Archī",
    "countryCode": "AF",
    "stateCode": "KDZ",
    "latitude": "37.13333000",
    "longitude": "69.16667000"
  },
  {
    "name": "Imām Şāḩib",
    "countryCode": "AF",
    "stateCode": "KDZ",
    "latitude": "37.18897000",
    "longitude": "68.93644000"
  },
  {
    "name": "Khanabad",
    "countryCode": "AF",
    "stateCode": "KDZ",
    "latitude": "36.68250000",
    "longitude": "69.11556000"
  },
  {
    "name": "Kunduz",
    "countryCode": "AF",
    "stateCode": "KDZ",
    "latitude": "36.72895000",
    "longitude": "68.85700000"
  },
  {
    "name": "Qarāwul",
    "countryCode": "AF",
    "stateCode": "KDZ",
    "latitude": "37.21959000",
    "longitude": "68.78020000"
  },
  {
    "name": "Khōst",
    "countryCode": "AF",
    "stateCode": "KHO",
    "latitude": "33.33951000",
    "longitude": "69.92041000"
  },
  {
    "name": "Asadabad",
    "countryCode": "AF",
    "stateCode": "KNR",
    "latitude": "34.87311000",
    "longitude": "71.14697000"
  },
  {
    "name": "Āsmār",
    "countryCode": "AF",
    "stateCode": "KNR",
    "latitude": "35.03333000",
    "longitude": "71.35809000"
  },
  {
    "name": "Mehtar Lām",
    "countryCode": "AF",
    "stateCode": "LAG",
    "latitude": "34.67139000",
    "longitude": "70.20944000"
  },
  {
    "name": "Baraki Barak",
    "countryCode": "AF",
    "stateCode": "LOG",
    "latitude": "33.96744000",
    "longitude": "68.94920000"
  },
  {
    "name": "Pul-e ‘Alam",
    "countryCode": "AF",
    "stateCode": "LOG",
    "latitude": "33.99529000",
    "longitude": "69.02274000"
  },
  {
    "name": "Ḩukūmatī Azrah",
    "countryCode": "AF",
    "stateCode": "LOG",
    "latitude": "34.17355000",
    "longitude": "69.64573000"
  },
  {
    "name": "Bāsawul",
    "countryCode": "AF",
    "stateCode": "NAN",
    "latitude": "34.24749000",
    "longitude": "70.87218000"
  },
  {
    "name": "Jalālābād",
    "countryCode": "AF",
    "stateCode": "NAN",
    "latitude": "34.42647000",
    "longitude": "70.45153000"
  },
  {
    "name": "Markaz-e Woluswalī-ye Āchīn",
    "countryCode": "AF",
    "stateCode": "NAN",
    "latitude": "34.12583000",
    "longitude": "70.70778000"
  },
  {
    "name": "Khāsh",
    "countryCode": "AF",
    "stateCode": "NIM",
    "latitude": "31.52919000",
    "longitude": "62.79055000"
  },
  {
    "name": "Mīrābād",
    "countryCode": "AF",
    "stateCode": "NIM",
    "latitude": "30.43624000",
    "longitude": "61.83830000"
  },
  {
    "name": "Rūdbār",
    "countryCode": "AF",
    "stateCode": "NIM",
    "latitude": "30.15000000",
    "longitude": "62.60000000"
  },
  {
    "name": "Zaranj",
    "countryCode": "AF",
    "stateCode": "NIM",
    "latitude": "30.95962000",
    "longitude": "61.86037000"
  },
  {
    "name": "Pārūn",
    "countryCode": "AF",
    "stateCode": "NUR",
    "latitude": "35.42064000",
    "longitude": "70.92261000"
  },
  {
    "name": "Bāzārak",
    "countryCode": "AF",
    "stateCode": "PAN",
    "latitude": "35.31292000",
    "longitude": "69.51519000"
  },
  {
    "name": "Charikar",
    "countryCode": "AF",
    "stateCode": "PAR",
    "latitude": "35.01361000",
    "longitude": "69.17139000"
  },
  {
    "name": "Jabal os Saraj",
    "countryCode": "AF",
    "stateCode": "PAR",
    "latitude": "35.11833000",
    "longitude": "69.23778000"
  },
  {
    "name": "Gardez",
    "countryCode": "AF",
    "stateCode": "PIA",
    "latitude": "33.59744000",
    "longitude": "69.22592000"
  },
  {
    "name": "Saṟōbī",
    "countryCode": "AF",
    "stateCode": "PKA",
    "latitude": "32.75221000",
    "longitude": "69.04587000"
  },
  {
    "name": "Zarghūn Shahr",
    "countryCode": "AF",
    "stateCode": "PKA",
    "latitude": "32.84734000",
    "longitude": "68.44573000"
  },
  {
    "name": "Zaṟah Sharan",
    "countryCode": "AF",
    "stateCode": "PKA",
    "latitude": "33.14641000",
    "longitude": "68.79213000"
  },
  {
    "name": "Aībak",
    "countryCode": "AF",
    "stateCode": "SAM",
    "latitude": "36.26468000",
    "longitude": "68.01551000"
  },
  {
    "name": "Chīras",
    "countryCode": "AF",
    "stateCode": "SAR",
    "latitude": "35.41674000",
    "longitude": "65.98234000"
  },
  {
    "name": "Larkird",
    "countryCode": "AF",
    "stateCode": "SAR",
    "latitude": "35.48936000",
    "longitude": "66.66409000"
  },
  {
    "name": "Qal‘ah-ye Shahr",
    "countryCode": "AF",
    "stateCode": "SAR",
    "latitude": "35.54729000",
    "longitude": "65.56760000"
  },
  {
    "name": "Sang-e Chārak",
    "countryCode": "AF",
    "stateCode": "SAR",
    "latitude": "35.84972000",
    "longitude": "66.43694000"
  },
  {
    "name": "Sar-e Pul",
    "countryCode": "AF",
    "stateCode": "SAR",
    "latitude": "36.21544000",
    "longitude": "65.93249000"
  },
  {
    "name": "Tagāw-Bāy",
    "countryCode": "AF",
    "stateCode": "SAR",
    "latitude": "35.69941000",
    "longitude": "66.06164000"
  },
  {
    "name": "Tukzār",
    "countryCode": "AF",
    "stateCode": "SAR",
    "latitude": "35.94831000",
    "longitude": "66.42132000"
  },
  {
    "name": "Taloqan",
    "countryCode": "AF",
    "stateCode": "TAK",
    "latitude": "36.73605000",
    "longitude": "69.53451000"
  },
  {
    "name": "Ārt Khwājah",
    "countryCode": "AF",
    "stateCode": "TAK",
    "latitude": "37.08571000",
    "longitude": "69.47958000"
  },
  {
    "name": "Tarinkot",
    "countryCode": "AF",
    "stateCode": "URU",
    "latitude": "32.62998000",
    "longitude": "65.87806000"
  },
  {
    "name": "Uruzgān",
    "countryCode": "AF",
    "stateCode": "URU",
    "latitude": "32.92775000",
    "longitude": "66.63253000"
  },
  {
    "name": "Qalāt",
    "countryCode": "AF",
    "stateCode": "ZAB",
    "latitude": "32.10575000",
    "longitude": "66.90833000"
  }
]
